[{"name":"이문설농탕","lat":37.572904,"lng":126.983852,"menu":"한식"},{"name":"오봉집","lat":37.577217,"lng":126.830762,"menu":"한식"},{"name":"양문소갈비","lat":37.543287,"lng":126.971765,"menu":"한식"},{"name":"계절향기","lat":37.532629,"lng":126.735993,"menu":"일식"},{"name":"카와카츠오토코","lat":37.551795,"lng":126.917529,"menu":"일식"},{"name":"오복수산","lat":37.537678,"lng":127.001896,"menu":"일식"}]